{"type":"FeatureCollection","features":[{"type":"Feature","properties":{"name":"Alabama","amout":294009,"female":57.9},"geometry":{"type":"Point","coordinates":[-86.79113,32.806671]}},{"type":"Feature","properties":{"name":"Alaska","amout":20152,"female":57.2},"geometry":{"type":"Point","coordinates":[-152.404419,61.370716]}},{"type":"Feature","properties":{"name":"Arizona","amout":624719,"female":60.4},"geometry":{"type":"Point","coordinates":[-111.431221,33.729759]}},{"type":"Feature","properties":{"name":"Arkansas","amout":154781,"female":58.6},"geometry":{"type":"Point","coordinates":[-92.373123,34.969704]}},{"type":"Feature","properties":{"name":"California","amout":2486788,"female":57.3},"geometry":{"type":"Point","coordinates":[-119.681564,36.116203]}},{"type":"Feature","properties":{"name":"Colorado","amout":346716,"female":56.1},"geometry":{"type":"Point","coordinates":[-105.311104,39.059811]}},{"type":"Feature","properties":{"name":"Connecticut","amout":187764,"female":57.2},"geometry":{"type":"Point","coordinates":[-72.755371,41.597782]}},{"type":"Feature","properties":{"name":"Delaware","amout":57022,"female":59.4},"geometry":{"type":"Point","coordinates":[-75.507141,39.318523]}},{"type":"Feature","properties":{"name":"District of Columbia","amout":99329,"female":62.1},"geometry":{"type":"Point","coordinates":[-77.0368127,38.89470803]}},{"type":"Feature","properties":{"name":"Florida","amout":999223,"female":57.3},"geometry":{"type":"Point","coordinates":[-81.686783,27.766279]}},{"type":"Feature","properties":{"name":"Geogria","amout":541594,"female":59},"geometry":{"type":"Point","coordinates":[-83.643074,33.040619]}},{"type":"Feature","properties":{"name":"Hawaii","amout":58841,"female":62.8},"geometry":{"type":"Point","coordinates":[-157.498337,21.094318]}},{"type":"Feature","properties":{"name":"Idaho","amout":125249,"female":55.4},"geometry":{"type":"Point","coordinates":[-114.478828,44.240459]}},{"type":"Feature","properties":{"name":"Illinois","amout":677446,"female":55.6},"geometry":{"type":"Point","coordinates":[-88.986137,40.349457]}},{"type":"Feature","properties":{"name":"Indiana","amout":436234,"female":54.6},"geometry":{"type":"Point","coordinates":[-86.258278,39.849426]}},{"type":"Feature","properties":{"name":"Iowa","amout":202287,"female":52},"geometry":{"type":"Point","coordinates":[-93.210526,42.011539]}},{"type":"Feature","properties":{"name":"Kansas","amout":185985,"female":53},"geometry":{"type":"Point","coordinates":[-96.726486,38.5266]}},{"type":"Feature","properties":{"name":"Kentucky","amout":261751,"female":59.7},"geometry":{"type":"Point","coordinates":[-84.670067,37.66814]}},{"type":"Feature","properties":{"name":"Louisiana","amout":238689,"female":60.6},"geometry":{"type":"Point","coordinates":[-91.867805,31.169546]}},{"type":"Feature","properties":{"name":"Maine","amout":71475,"female":57.9},"geometry":{"type":"Point","coordinates":[-69.381927,44.693947]}},{"type":"Feature","properties":{"name":"Maryland","amout":329092,"female":55.4},"geometry":{"type":"Point","coordinates":[-76.802101,39.063946]}},{"type":"Feature","properties":{"name":"Massachusetts","amout":468960,"female":55.8},"geometry":{"type":"Point","coordinates":[-71.530106,42.230171]}},{"type":"Feature","properties":{"name":"Michigan","amout":466458,"female":55},"geometry":{"type":"Point","coordinates":[-84.536095,43.326618]}},{"type":"Feature","properties":{"name":"Minnesota","amout":373128,"female":59.7},"geometry":{"type":"Point","coordinates":[-93.900192,45.694454]}},{"type":"Feature","properties":{"name":"Missisippi","amout":155950,"female":56.2},"geometry":{"type":"Point","coordinates":[-89.678696,32.741646]}},{"type":"Feature","properties":{"name":"Missouri","amout":333470,"female":56.2},"geometry":{"type":"Point","coordinates":[-92.288368,38.456085]}},{"type":"Feature","properties":{"name":"Montana","amout":47134,"female":53},"geometry":{"type":"Point","coordinates":[-110.454353,46.921925]}},{"type":"Feature","properties":{"name":"Nebraska","amout":134815,"female":55.7},"geometry":{"type":"Point","coordinates":[-98.268082,41.12537]}},{"type":"Feature","properties":{"name":"Nevada","amout":113588,"female":59.4},"geometry":{"type":"Point","coordinates":[-117.055374,38.313515]}},{"type":"Feature","properties":{"name":"New Hampshire","amout":214537,"female":58.6},"geometry":{"type":"Point","coordinates":[-71.563896,43.452492]}},{"type":"Feature","properties":{"name":"New Jersey","amout":378819,"female":52.8},"geometry":{"type":"Point","coordinates":[-74.521011,40.298904]}},{"type":"Feature","properties":{"name":"New Mexico","amout":110082,"female":59.2},"geometry":{"type":"Point","coordinates":[-106.248482,34.840515]}},{"type":"Feature","properties":{"name":"New York","amout":1117623,"female":56.4},"geometry":{"type":"Point","coordinates":[-74.948051,42.165726]}},{"type":"Feature","properties":{"name":"North Carolina","amout":553180,"female":57.9},"geometry":{"type":"Point","coordinates":[-79.806419,35.630066]}},{"type":"Feature","properties":{"name":"North Dakota","amout":51074,"female":51.7},"geometry":{"type":"Point","coordinates":[-99.784012,47.528912]}},{"type":"Feature","properties":{"name":"Ohio","amout":612352,"female":55.4},"geometry":{"type":"Point","coordinates":[-82.764915,40.388783]}},{"type":"Feature","properties":{"name":"Oklahoma","amout":184218,"female":56.4},"geometry":{"type":"Point","coordinates":[-96.928917,35.565342]}},{"type":"Feature","properties":{"name":"Oregon","amout":194987,"female":56.6},"geometry":{"type":"Point","coordinates":[-122.070938,44.572021]}},{"type":"Feature","properties":{"name":"Pennsylvania","amout":633991,"female":55.4},"geometry":{"type":"Point","coordinates":[-77.209755,40.590752]}},{"type":"Feature","properties":{"name":"Puerto Rico","amout":633991,"female":55.4},"geometry":{"type":"Point","coordinates":[-66.45963584,18.23032102]}},{"type":"Feature","properties":{"name":"Rhode Island","amout":74413,"female":56.1},"geometry":{"type":"Point","coordinates":[-71.51178,41.680893]}},{"type":"Feature","properties":{"name":"South Carolina","amout":242672,"female":57.5},"geometry":{"type":"Point","coordinates":[-80.945007,33.856892]}},{"type":"Feature","properties":{"name":"South Dakota","amout":51317,"female":52},"geometry":{"type":"Point","coordinates":[-99.438828,44.299782]}},{"type":"Feature","properties":{"name":"Tenessee","amout":308710,"female":59.1},"geometry":{"type":"Point","coordinates":[-86.692345,35.747845]}},{"type":"Feature","properties":{"name":"Texas","amout":1567017,"female":56.7},"geometry":{"type":"Point","coordinates":[-97.563461,31.054487]}},{"type":"Feature","properties":{"name":"Utha","amout":401218,"female":59},"geometry":{"type":"Point","coordinates":[-111.862434,40.150032]}},{"type":"Feature","properties":{"name":"Vermont","amout":39888,"female":52.6},"geometry":{"type":"Point","coordinates":[-72.710686,44.045876]}},{"type":"Feature","properties":{"name":"Virginia","amout":546280,"female":56.6},"geometry":{"type":"Point","coordinates":[-78.169968,37.769337]}},{"type":"Feature","properties":{"name":"Washington","amout":311068,"female":57.3},"geometry":{"type":"Point","coordinates":[-121.490494,47.400902]}},{"type":"Feature","properties":{"name":"West Virginia","amout":132923,"female":56.5},"geometry":{"type":"Point","coordinates":[-80.954453,38.491226]}},{"type":"Feature","properties":{"name":"Wisconsin","amout":316129,"female":56},"geometry":{"type":"Point","coordinates":[-89.616508,44.268543]}},{"type":"Feature","properties":{"name":"Wyoming","amout":29971,"female":52.4},"geometry":{"type":"Point","coordinates":[-107.30249,42.755966]}}]}